{"version": 0.6, "generator": "Overpass API 0.7.62.8 e802775f", "osm3s": {"timestamp_osm_base": "2025-11-22T19:06:56Z", "copyright": "The data included in this document is from www.openstreetmap.org. The data is made available under ODbL."}, "elements": [{"type": "node", "id": 683051628, "lat": 49.2633484, "lon": -123.1568109}, {"type": "node", "id": 683051629, "lat": 49.2629965, "lon": -123.1568239}, {"type": "node", "id": 683051630, "lat": 49.2629749, "lon": -123.1554506}, {"type": "node", "id": 683051631, "lat": 49.263327, "lon": -123.1554377}, {"type": "node", "id": 763661652, "lat": 49.2665883, "lon": -123.1710527}, {"type": "node", "id": 1056042335, "lat": 49.2629511, "lon": -123.1645721}, {"type": "node", "id": 5633648037, "lat": 49.2654, "lon": -123.1710774}, {"type": "node", "id": 5633648038, "lat": 49.2653889, "lon": -123.1698224}, {"type": "node", "id": 5633648039, "lat": 49.2665772, "lon": -123.1697977}, {"type": "node", "id": 7533336808, "lat": 49.261279, "lon": -123.1646914}, {"type": "node", "id": 7533336811, "lat": 49.2629867, "lon": -123.1646161}, {"type": "node", "id": 8200520212, "lat": 49.2625034, "lon": -123.1575798}, {"type": "node", "id": 8200520213, "lat": 49.262846, "lon": -123.157567}, {"type": "node", "id": 8200555421, "lat": 49.2633174, "lon": -123.156812}, {"type": "node", "id": 8522636633, "lat": 49.2629248, "lon": -123.1625811}, {"type": "node", "id": 8522636634, "lat": 49.2612651, "lon": -123.1626436}, {"type": "node", "id": 8522636635, "lat": 49.2612965, "lon": -123.1646318}, {"type": "node", "id": 8522636645, "lat": 49.2629562, "lon": -123.1645727}, {"type": "node", "id": 8808074080, "lat": 49.2667568, "lon": -123.1818995}, {"type": "node", "id": 8808074081, "lat": 49.2667834, "lon": -123.1835579}, {"type": "node", "id": 8808074082, "lat": 49.2661258, "lon": -123.1835816}, {"type": "node", "id": 8808074083, "lat": 49.2660996, "lon": -123.1819232}, {"type": "node", "id": 8809920216, "lat": 49.2624935, "lon": -123.1569518}, {"type": "node", "id": 8809923817, "lat": 49.2628361, "lon": -123.1569385}, {"type": "node", "id": 9155714871, "lat": 49.2612427, "lon": -123.1626778}, {"type": "way", "id": 54146390, "nodes": [683051628, 8200555421, 683051629, 683051630, 683051631, 683051628], "tags": {"amenity": "school", "name": "St John's School", "wikidata": "Q7588838"}}, {"type": "way", "id": 336804719, "nodes": [8522636634, 8522636635, 8522636645, 8522636633, 8522636634], "tags": {"amenity": "school", "name": "Kitsilano Secondary", "name:etymology:wikidata": "Q4820740", "name:etymology:wikipedia": "en:August Jack Khatsahlano", "wikidata": "Q11277451", "wikipedia": "en:Kitsilano Secondary School"}}, {"type": "way", "id": 589970245, "nodes": [763661652, 5633648039, 5633648038, 5633648037, 763661652], "tags": {"addr:housenumber": "2268", "addr:street": "Bayswater Street", "amenity": "school", "name": "General Gordon Elementary School", "website": "https://www.vsb.bc.ca/general-gordon", "website:pac": "https://www.gordonpac.com/"}}, {"type": "way", "id": 881803731, "nodes": [8200520212, 8200520213, 8809923817, 8809920216, 8200520212], "tags": {"amenity": "school", "name": "Fraser Academy"}}, {"type": "way", "id": 951597306, "nodes": [8808074083, 8808074082, 8808074081, 8808074080, 8808074083], "tags": {"amenity": "school", "name": "Bayview School"}}, {"type": "way", "id": 990908811, "nodes": [7533336811, 1056042335, 8522636633, 9155714871, 7533336808, 7533336811], "tags": {"addr:city": "Vancouver", "addr:housenumber": "2706", "addr:postcode": "V6K 2G3", "addr:province": "BC", "addr:street": "Trafalgar Street", "amenity": "school", "education": "school", "grades": "8-12", "name": "Kitsilano Secondary School", "religion": "none", "website": "https://www.vsb.bc.ca/schools/kitsilano/Pages/default.aspx", "website:pac": "https://kitsilanopac.ca/"}}]}